station_id,station_code,station_name,latitude,longitude,altitude,name
3167,620-4-6,Ørteren,60.47,7.795,1147.0,Østlandet
3168,621-1-27,Flåvatna,60.2,9.183,855.0,Østlandet
3169,621-3-5,Soneren,60.061,9.545,104.0,Østlandet
3170,622-2-43,Trytetjern,60.213,9.764,275.0,Østlandet
3171,622-4-4,Krøderen,60.327,9.645,133.0,Østlandet
3173,624-1-8,Grøntjern,59.71506672,9.7129563,276.0,Østlandet
3174,624-1-55,Brånavatnet,59.638,9.852,394.0,Østlandet
3175,624-2-23,Skogsvatnet,59.826,9.938,213.0,Østlandet
3176,624-4-5,Eikeren,59.666,9.912,19.0,Østlandet
3177,631-1-4,Nydammen,59.746,9.47,638.0,Østlandet
3178,631-2-29,Tryttjern,59.881,9.651,488.0,Østlandet
3179,632-1-20,Trytetjørn,59.985,9.373,695.0,Østlandet
3180,633-1-11,Øvre Halstjørnane,60.258,8.178,1190.0,Østlandet
3181,633-1-16,HOH 1217,60.223,7.738,1212.0,Østlandet
3182,633-1-18,HOH 1250,60.31,8.621,1244.0,Østlandet
3183,633-1-29,Tjørngrøtjørnane,60.363,8.345,1195.0,Østlandet
3184,633-1-30,Såtenattjørnan,60.361,9.137,1005.0,Østlandet
3185,633-2-2,Frygnevatnet,60.398,8.638,886.0,Østlandet
3186,633-2-4,Grånsettjørni,60.369,9.083,1031.0,Østlandet
3187,633-2-8,Vestre Søltjørni,60.189,8.239,1182.0,Østlandet
3188,633-2-11,Øvre Nutetjørnane,60.194,8.361,1286.0,Østlandet
3189,633-2-13,Holmevatni,60.425,8.954,1089.0,Østlandet
3190,633-2-21,Flåtåtjørni,60.2439566,8.51316846,1100.0,Østlandet
3191,633-2-24,Vegardhovdtjørnan,60.144,7.832,1255.0,Østlandet
3192,633-2-25,HOH 1065,60.316,9.11,1066.0,Østlandet
3193,633-3-14,Krossvatnet,60.247,7.984,1165.0,Østlandet
3194,633-4-8,Langesjøen,60.24543237,7.75004054,1206.0,Østlandet
3196,714-3-5,Bergsvatnet,59.58437116,10.05711867,36.0,Østlandet
3197,720-2-1,Gjennestadvatnet,59.234,10.244,53.0,Østlandet
3198,728-1-3,Solbergvatnet,59.334,9.997,232.0,Østlandet
3199,728-1-6,Rosovatnet,59.401,10.014,,Østlandet
3200,806-2-23,Holmevatn,59.447,9.594,513.0,Sørlandet
3201,807-1-36,Vassenden,59.603,9.347,289.0,Sørlandet
3203,807-3-1,Sønstevatn,59.727,9.131,318.0,Sørlandet
3204,807-4-1,Heddalsvatnet,59.558,9.218,16.0,Sørlandet
3206,815-1-29,HOH 50,58.89,9.284,61.0,Sørlandet
3207,815-2-27,Lønstravatnet,58.872,9.243,89.0,Sørlandet
3208,815-3-8,Leivatnet,58.787,9.313,9.0,Sørlandet
3209,817-1-14,Teksle,59.025,9.147,105.0,Sørlandet
3210,817-1-33,Store Kyrsvatnet,59.09600356,9.12629622,134.0,Sørlandet
3211,817-1-34,Eldhustjenna,59.00200945,9.20633988,59.0,Sørlandet
3212,817-1-38,Signevatnet,59.152,9.12,245.0,Sørlandet
3213,817-1-43,Skultrevatnet,59.072,9.27,226.0,Sørlandet
3214,817-1-72,Dei store tjørnane,59.072,8.683,642.0,Sørlandet
3215,817-2-61,Sandvatnet,59.086,8.757,369.0,Sørlandet
3217,819-2-13,Prestevatnet,59.166,9.211,148.0,Sørlandet
3218,819-2-14,Bøvatnet,59.158,9.207,133.0,Sørlandet
3219,819-3-17,Store Børten,59.159,9.245,105.0,Sørlandet
3220,822-2-11,Børtevatn,59.413,9.355,195.0,Sørlandet
3221,826-1-7,Vesle Flottetjørn,59.981,8.525,1105.0,Sørlandet
3222,826-1-16,Svarttjørn,59.892,8.854,1135.0,Sørlandet
3223,826-1-17,HOH 1162,59.967,8.489,1162.0,Sørlandet
3224,826-1-18,Fikstjørn,59.853,8.616,928.0,Sørlandet
3225,826-1-20,Grysletjørn,59.972,8.59,1182.0,Sørlandet
3226,826-1-25,HOH 1335,60.156,8.032,1328.0,Sørlandet
3227,826-1-28,Storsteinvatnet,59.796,8.354,1076.0,Sørlandet
3228,826-1-30,Ormetjørn,59.904,8.51,1082.0,Sørlandet
3229,826-1-35,Langtjørn,60.025,8.401,1089.0,Sørlandet
3230,826-1-39,Torjustjørn,59.942,8.487,1152.0,Sørlandet
3231,826-2-6,Viktjørn,60.117,8.134,1354.0,Sørlandet
3232,826-2-24,Longetjørn,59.889,8.768,1016.0,Sørlandet
3234,827-1-23,Lysetjørn,59.791,8.448,1001.0,Sørlandet
3235,827-1-41,HOH 1102,59.815,8.455,1101.0,Sørlandet
3236,827-2-32,Sjausetvatnet,59.681,8.801,740.0,Sørlandet
3238,827-3-26,Sjåvatnet,59.802,8.86,896.0,Sørlandet
3239,828-1-22,Sandtjørni,59.77420543,8.38222965,1157.0,Sørlandet
3241,828-2-25,Grotvatni,59.741,8.363,1040.0,Sørlandet
3242,829-1-46,Stestøyltjørni,59.38,8.304,638.0,Sørlandet
3243,829-2-59,Bjørntjørn,59.305,8.259,965.0,Sørlandet
3244,829-4-6,Kviteseidvatnet,59.34974087,8.58064562,72.0,Sørlandet
3246,831-1-26,Snotjørnane,59.138,7.762,844.0,Sørlandet
3247,831-2-3,Øvre Selbuvatn,58.979,7.965,708.0,Sørlandet
3249,831-2-29,Tussetjørn,59.164,7.857,671.0,Sørlandet
3250,831-2-60,Kråkestøltjørn,59.003,7.992,657.0,Sørlandet
3252,831-3-32,Sandvatnet,59.224,8.246,675.0,Sørlandet
3253,831-4-8,Fyresvatn,59.09555816,8.15346035,280.0,Sørlandet
3254,833-1-21,Grunntjørn,59.559,8.266,926.0,Sørlandet
3255,833-2-16,Kambetjørn,59.37,7.768,760.0,Sørlandet
3256,833-2-30,Kjønnesviksvatnet,59.344,7.673,812.0,Sørlandet
3257,833-3-3,Åmlivatn,59.388,8.019,477.0,Sørlandet
3259,834-1-6,HOH 1387,59.986,7.388,1385.0,Sørlandet
3260,834-2-2,Midtre Supsavatn,59.626,7.687,1087.0,Sørlandet
3261,834-2-5,Vonevatn,59.839,7.699,1177.0,Sørlandet
3262,834-2-8,Fetveittjørn,59.629,7.879,644.0,Sørlandet
3263,834-2-10,Straumstøltjørn,59.734,7.692,1049.0,Sørlandet
3264,834-2-12,Torstjørni,60.037,7.983,1220.0,Sørlandet
3265,834-2-18,Såtetjørn,59.93,8.11,1315.0,Sørlandet
3266,834-2-26,Vikvatnet,59.612,8.211,711.0,Sørlandet
3267,834-2-28,HOH 1367,59.96952133,7.7877613,1364.0,Sørlandet
3270,834-3-14,Lognvikvatn,59.679,8.13,697.0,Sørlandet
3271,834-4-5,Totak,59.775,7.716,687.0,Sørlandet
3272,834-4-7,Holmavatnet,59.683,7.167,1058.0,Vestlandet
3273,901-1-55,Stavvatn,58.714,8.974,164.0,Sørlandet
3274,901-2-49,Mjåvatnet,58.75565461,9.0325793,121.0,Sørlandet
3275,901-3-8,Dalsvatnet,58.762,9.148,4.0,Sørlandet
3277,912-2-4,Simonstadvatnet,58.774,8.976,155.0,Sørlandet
3278,912-2-14,Midtvatnet,58.686,8.741,210.0,Sørlandet
3279,912-2-18,Ljøstadvann,58.75162218,8.89803943,178.0,Sørlandet
3280,912-2-27,Ljøsvannet,58.757,8.901,178.0,Sørlandet
3281,912-2-30,HOH 170,58.738,8.941,176.0,Sørlandet
3282,914-1-14,Vålandstjern,58.613,8.755,137.0,Sørlandet
3283,914-1-31,HOH 146,58.64,8.773,,Sørlandet
3285,919-2-19,Ålevatnet,58.673,8.354,171.0,Sørlandet
3286,928-1-17,Krokevatn,58.43008227,8.23269745,,Sørlandet
3288,929-1-1,Eiklitjørn,58.792,8.418,242.0,Sørlandet
3289,929-1-5,Berlitjørnane,58.85909191,8.61660207,226.0,Sørlandet
3290,929-1-20,Imetjern,58.749,8.497,,Sørlandet
3291,929-1-22,Øytjørn,58.888,8.127,685.0,Sørlandet
3292,929-2-8,Øvre Skålvatn,58.792,8.659,206.0,Sørlandet
3293,929-2-25,Stemmevatn,58.929,8.578,463.0,Sørlandet
3294,929-2-26,Lauvlivatn,58.802,8.299,489.0,Sørlandet
3296,937-2-1,Midtvatnet,58.47021101,7.65249264,389.0,Sørlandet
3298,938-1-9,Longeraktjørn,58.766,7.95,619.0,Sørlandet
3299,938-1-23,Kvivotni,58.929,7.183,856.0,Sørlandet
3300,938-1-27,Fånetjørn,58.777,7.864,675.0,Sørlandet
3301,938-1-28,Hovotni,59.042,7.717,769.0,Sørlandet
3302,938-1-29,Beritstjørni,58.743,7.921,596.0,Sørlandet
3303,938-2-10,Skjevlevatni,58.885,7.991,655.0,Sørlandet
3304,938-2-15,Flåvatnet,58.949,7.295,1000.0,Sørlandet
3305,938-3-24,Sandsvatnet,58.81,7.943,589.0,Sørlandet
3307,940-1-4,Urdevotni,59.052,7.33,865.0,Sørlandet
3308,940-1-6,HOH 1220,59.219,7.206,1222.0,Sørlandet
3309,940-1-10,HOH 1114,59.1215536,7.36963382,1114.0,Sørlandet
3310,940-1-11,HOH 1285,59.233,7.173,1284.0,Sørlandet
3311,940-1-13,HOH 1238,59.199,7.108,1237.0,Sørlandet
3312,940-1-24,HOH 1050,59.331729,7.64702721,1027.0,Sørlandet
3313,940-2-33,Hovdevatnet,59.113,7.429,763.0,Sørlandet
3314,940-2-51,Langevatn,59.062,7.735,791.0,Sørlandet
3315,940-2-52,Øvre Krokvatnet,59.201,7.375,1174.0,Sørlandet
3317,941-1-3,HOH 1110,59.625,7.14,1108.0,Sørlandet
3318,941-1-8,HOH 1168,59.512,6.99,1172.0,Sørlandet
3319,941-1-15,HOH 1040,59.293,6.99,1041.0,Sørlandet
3320,941-1-18,HOH 1260,59.216,6.907,1240.0,Sørlandet
3321,941-1-30,HOH 1221,59.212,6.879,1220.0,Sørlandet
3322,941-2-2,HOH 1238,59.456,7.596,1233.0,Sørlandet
3323,941-2-17,Reinevasstjørni,59.407,7.203,1187.0,Sørlandet
3324,941-2-32,HOH 1080,59.338,6.861,1081.0,Sørlandet
3325,941-2-34,Den lange tjørni,59.655,7.231,1075.0,Sørlandet
3326,941-3-5,Reinevatn,59.426,7.2,1175.0,Sørlandet
3327,941-3-12,Breivevatnet,59.571,7.278,759.0,Sørlandet
3328,941-3-13,Ormsavatnet,59.521,7.116,868.0,Sørlandet
3329,941-3-18,Urdevatnet,59.581,7.024,1077.0,Sørlandet
3330,941-4-2,Store Urevatn,59.44941434,7.12159258,1175.0,Sørlandet
3331,1001-1-55,Skeivatnet,58.223,7.857,211.0,Sørlandet
3333,1002-1-62,Vråvatn,58.086,7.406,175.0,Sørlandet
3334,1003-1-16,HOH 130,58.214,6.763,121.0,Sørlandet
3335,1003-1-18,HOH 14,58.096,6.87,50.0,Sørlandet
3336,1003-2-2,Brastadvatnet,58.10006073,6.6805792,3.0,Sørlandet
3337,1004-1-2,Engelsvatnet,58.22486843,6.66499638,106.0,Sørlandet
3338,1004-1-21,Skultjørnan,58.537,6.633,516.0,Sørlandet
3340,1004-2-6,Djupvatnet,58.503,6.714,434.0,Sørlandet
3341,1017-1-14,Gyvatnet,58.291,7.714,258.0,Sørlandet
3342,1017-1-31,Gardvatnet,58.319,7.599,304.0,Sørlandet
3343,1021-1-27,Grunnevatnet,58.246,7.6,,Sørlandet
3344,1021-1-61,Kringlevatnet,58.19,7.668,215.0,Sørlandet
3345,1026-1-6,HOH 737,58.663,7.188,737.0,Sørlandet
3346,1026-1-10,HOH 875,58.829,7.201,,Sørlandet
3347,1026-2-10,Kjosevatn,58.754,7.654,612.0,Sørlandet
3348,1026-2-20,Storevatn,58.766,7.437,804.0,Sørlandet
3352,1026-3-3,Langevatn,58.81769698,7.36889014,684.0,Sørlandet
3353,1026-3-18,Storevatnet,58.74,7.222,860.0,Sørlandet
3354,1026-3-19,Ljoslandsvatnet,58.771,7.353,500.0,Sørlandet
3355,1029-1-26,Vassåkervatnet,58.073,7.396,,Sørlandet
3356,1032-2-4,Jovatnet,58.1667468,7.1301914,167.0,Sørlandet
3357,1032-2-13,Hagevatnet,58.19840868,7.08428579,256.0,Sørlandet
3358,1034-1-4,Grantjørni,58.586,7.122,542.0,Sørlandet
3360,1034-2-22,Bjønnvatn,58.57444362,7.24608068,654.0,Sørlandet
3362,1037-1-13,Husbrytjørn,58.44,6.978,301.0,Sørlandet
3363,1037-2-14,Hellartjern,58.726,7.04,674.0,Sørlandet
3365,1046-1-8,Småtjørnan,58.64698988,6.806222,570.0,Sørlandet
3366,1046-1-11,HOH 573,58.782,6.719,573.0,Sørlandet
3367,1046-1-12,HOH 760,58.80729385,6.63884705,,Sørlandet
3368,1046-1-15,HOH 1041,58.93675216,6.62866895,1041.0,Sørlandet
3369,1046-1-20,Litle Svartevatnet,58.65823697,6.4896436,509.0,Sørlandet
3370,1046-1-24,HOH 944,58.965,6.667,,Sørlandet
3372,1046-1-30,HOH 739,58.787,6.55,738.0,Sørlandet
3373,1046-1-33,HOH 850,58.856,6.588,845.0,Sørlandet
3374,1046-2-9,HOH 860,58.94833006,7.11692374,856.0,Sørlandet
3375,1046-2-12,Indre Skeidsvatn,58.784,6.658,691.0,Sørlandet
3376,1046-2-15,Krokevatn,58.819,6.894,787.0,Sørlandet
3377,1046-2-17,Åsmundsvatnet,58.621,6.818,566.0,Sørlandet
3378,1046-2-21,Falketjørnene,58.939,7.048,865.0,Sørlandet
3379,1046-2-23,Vassfellet,58.9951114,6.8037156,921.0,Sørlandet
3380,1046-2-24,Flåvatnet,58.584,6.805,554.0,Sørlandet
3381,1046-2-30,Avedalsvatnet,58.631,6.766,255.0,Sørlandet
3382,1046-3-9,Guddilsvatnet,58.8,6.913,721.0,Sørlandet
3383,1046-3-15,Storavatnet,58.84,6.962,811.0,Sørlandet
3384,1046-3-17,Degjevatnet,58.956,6.716,826.0,Sørlandet
3385,1046-3-20,Bjørnestadvatnet,58.66,6.602,353.0,Sørlandet
3386,1046-3-21,Langavatn,58.82516203,6.67138025,725.0,Sørlandet
3387,1101-3-8,Revsvatnet,58.46953026,6.11431211,164.0,Vestlandet
3388,1102-1-35,Auratjørna,58.86,6.05,400.0,Vestlandet
3389,1102-2-14,Skjelbreidtjørna,58.831,5.869,106.0,Vestlandet
3390,1111-1-1,Øygardstjørna,58.424,6.413,345.0,Vestlandet
3391,1112-1-10,Saurtjørni,58.51,6.31,286.0,Vestlandet
3392,1112-2-7,Glessjor,58.54054753,6.36627258,204.0,Vestlandet
3393,1112-4-1,Lundevatnet,58.402,6.607,49.0,Sørlandet
3394,1114-1-7,Hellevatnet,58.623,6.128,310.0,Vestlandet
3395,1114-1-8,HOH 710,58.733,6.461,704.0,Vestlandet
3396,1114-1-21,Holatjørni,58.677,6.471,612.0,Vestlandet
3397,1114-1-33,HOH 690,58.693,6.457,686.0,Vestlandet
3398,1114-2-4,HOH 712,58.723,6.596,,Vestlandet
3399,1114-2-25,Butjørnane,58.616,5.91,219.0,Vestlandet
3401,1114-3-4,Hofreistævatnet,58.68,6.17,166.0,Vestlandet
3402,1114-3-10,Indra Vinjavatnet,58.74989238,6.22397809,192.0,Vestlandet
3403,1119-1-25,Lauvåsvatnet,58.51525305,5.84261134,,Vestlandet
3404,1120-3-1,Horpestadvatnet,58.737,5.568,4.0,Vestlandet
3405,1121-2-17,Snorestadtjørnane,58.69415092,5.84164106,,Vestlandet
3406,1122-1-2,HOH 850,58.844,6.559,851.0,Vestlandet
3407,1122-1-3,HOH 770,58.813,6.333,771.0,Vestlandet
3408,1122-1-4,Kalvedalsvatnet,58.807,6.337,700.0,Vestlandet
3409,1122-1-12,Langatjørn,58.91323187,6.53841297,910.0,Vestlandet
3410,1122-1-16,Kringlelitjørna,58.716,5.927,220.0,Vestlandet
3412,1122-2-2,HOH 941,58.897,6.546,944.0,Vestlandet
3413,1122-2-18,Øvre Bergsvatnet,58.802,5.948,342.0,Vestlandet
3415,1129-1-15,Reinstjørn,59.131,6.851,954.0,Vestlandet
3416,1129-1-23,HOH 1102,59.124,6.759,1100.0,Vestlandet
3417,1129-1-28,Kleggadalsvatn,59.16,6.682,864.0,Vestlandet
3418,1129-1-32,Oalandstjørna,58.904,6.183,325.0,Vestlandet
3419,1129-1-36,HOH 1061,59.17357856,6.8131895,1061.0,Vestlandet
3420,1129-2-3,Søre Erevikvatnet,58.926,6.065,,Vestlandet
3422,1129-2-11,Troppevatnet,59.005,6.178,510.0,Vestlandet
3423,1129-2-12,HOH 1029,59.155,6.719,1029.0,Vestlandet
3424,1129-2-15,Vongsatjørnane,59.076,6.407,767.0,Vestlandet
3425,1129-2-28,Rundatjørna,59.063,6.374,548.0,Vestlandet
3426,1129-2-53,Svartavatnet,58.973,6.415,777.0,Vestlandet
3427,1129-3-15,Haukalivatnet,58.918,6.164,51.0,Vestlandet
3428,1130-3-14,Vostervatnet,59.096,5.977,54.0,Vestlandet
3429,1133-1-18,HOH 920,59.17810763,6.52375562,906.0,Vestlandet
3430,1133-1-24,Eikelivatnet,59.255,6.338,282.0,Vestlandet
3431,1133-1-30,HOH 1080,59.312,6.735,1062.0,Vestlandet
3432,1133-2-1,Heimra Svartavatnet,59.34,6.537,458.0,Vestlandet
3434,1133-2-23,HOH 1111,59.222,6.815,1112.0,Vestlandet
3435,1133-2-29,Brokavatnet,59.075,6.237,644.0,Vestlandet
3436,1133-2-603,Ø.Tysdalsvatn,59.169,6.356,64.0,Vestlandet
3437,1134-1-27,HOH 1250,59.558,6.917,1251.0,Vestlandet
3438,1134-2-8,Leirdålsvatna,59.495,6.959,1132.0,Vestlandet
3439,1134-2-24,Heimsvatnet,59.446,6.301,375.0,Vestlandet
3441,1135-1-19,Breiborgvatnet,59.724,6.566,665.0,Vestlandet
3442,1135-2-10,Løyndardalsvatnet,59.752,6.365,780.0,Vestlandet
3443,1135-2-13,Søre Dyrskardsvatnet,59.827,6.599,1154.0,Vestlandet
3444,1135-3-3,Førstadvatnet,59.706,6.562,617.0,Vestlandet
3445,1146-1-5,Bongsatjørna,59.421,5.438,25.0,Vestlandet
3446,1146-1-26,Lauvskardvatnet,59.36,5.726,301.0,Vestlandet
3447,1146-2-6,Ådnavatnet,59.36324898,5.43438775,51.0,Vestlandet
3448,1146-2-19,Nordre Vadvatnet,59.316,5.444,26.0,Vestlandet
3449,1146-2-22,Gåsavatnet,59.379,5.577,21.0,Vestlandet
3450,1149-1-6,Steinsvatnet,59.304,5.358,26.0,Vestlandet
3451,1149-2-26,Heiavatnet,59.272,5.228,25.0,Vestlandet
3452,1154-3-9,Gjerdesdalsvatnet,59.50483565,5.77354225,28.0,Vestlandet
3453,1154-3-16,Fjellgardsvatnet,59.5648292,6.02989187,157.0,Vestlandet
3454,1201-1-36,Storavatnet,60.232,5.3,16.0,Vestlandet
3455,1201-1-45,Stemmevatnet,60.443,5.444,154.0,Vestlandet
3456,1211-1-11,Vierdalsvatnet (Skålnesv.),59.814,6.295,830.0,Vestlandet
3457,1211-1-26,HOH 914,59.82912787,6.49152186,911.0,Vestlandet
3458,1216-2-12,Krossvikevatnet,59.54,5.428,37.0,Vestlandet
3459,1216-2-13,Mannavatnet,59.545,5.372,30.0,Vestlandet
3461,1216-3-11,Storavatnet,59.604,5.346,12.0,Vestlandet
3462,1219-1-2,Grindavatnet,59.787,5.191,,Vestlandet
3463,1219-1-22,Stemmevatnet,59.68178266,5.19680791,,Vestlandet
3464,1219-1-29,Eriksvatnet,59.662,5.167,32.0,Vestlandet
3465,1223-1-40,Øvre Vermedalsvatn,59.97748149,5.55817097,70.0,Vestlandet
3466,1223-2-37,Skartveitvatnet,59.976,5.597,125.0,Vestlandet
3467,1224-1-31,Hammarsvatnet,60.127,6.197,549.0,Vestlandet
3468,1224-2-14,HOH 1051,59.945,6.181,1051.0,Vestlandet
3469,1224-2-25,Mannsvatnet,59.922,5.94,566.0,Vestlandet
3471,1224-2-30,Insta Bukkaspelvatnet,60.15,6.393,1064.0,Vestlandet
3472,1224-2-39,Tveitedalsvatnet,60.076,6.215,936.0,Vestlandet
3474,1228-1-12,HOH 1367,60.02861249,6.82272231,1366.0,Vestlandet
3475,1228-1-13,HOH 1263,59.97885626,7.06228357,1261.0,Vestlandet
3476,1228-1-21,Litlavatn,59.885,6.849,928.0,Vestlandet
3477,1228-1-42,HOH 1166,59.999,6.488,1166.0,Vestlandet
3478,1228-2-9,HOH 1110,59.84,6.631,1107.0,Vestlandet
3479,1228-3-4,Kaldevatn,59.794,7.013,1205.0,Vestlandet
3482,1231-1-7,HOH 1342,60.103,7.465,1340.0,Vestlandet
3483,1231-1-9,HOH 1274,60.06104674,7.32619302,1269.0,Vestlandet
3484,1231-1-14,HOH 1253,60.263,6.965,1250.0,Vestlandet
3485,1231-2-2,Kjølo,60.252,6.871,1172.0,Vestlandet
3486,1231-2-7,HOH 1343,60.19130169,7.16521219,1343.0,Vestlandet
3487,1231-2-24,Trollavatnet,60.32773772,6.91611079,1280.0,Vestlandet
3488,1231-3-20,Litlosvatnet,60.08384584,7.14314134,1170.0,Vestlandet
3489,1232-1-3,HOH 1200,60.459,7.626,1197.0,Vestlandet
3490,1232-1-4,HOH 1324,60.127,7.36,1332.0,Vestlandet
3491,1232-1-37,HOH 1360,60.478,7.524,1356.0,Vestlandet
3492,1232-2-1,Inste Olavsbuvatni,60.426,7.639,1175.0,Vestlandet
3493,1232-3-18,Nordvatnet,60.23343788,7.38752075,1256.0,Vestlandet
3494,1233-1-10,HOH 1240,60.599,7.29,1237.0,Vestlandet
3495,1233-2-15,HOH 1232,60.652,7.379,1234.0,Vestlandet
3496,1233-2-27,Kvannjolvatnet,60.653,6.997,1087.0,Vestlandet
3497,1233-2-31,HOH 1410,60.659,7.451,1408.0,Vestlandet
3498,1234-3-2,Granvinsvatnet,60.556,6.72,23.0,Vestlandet
3499,1235-1-8,HOH 1241,60.549,6.342,1243.0,Vestlandet
3500,1235-1-30,HOH 1056,60.735,6.368,1047.0,Vestlandet
3502,1235-2-38,Grønlivatnet,60.555,6.594,530.0,Vestlandet
3503,1235-3-14,Storavatnet,60.496,6.387,963.0,Vestlandet
3504,1238-2-23,Øyjordsvatnet,60.264,6.123,73.0,Vestlandet
3505,1238-2-42,Djupebottvatnet,60.494,6.354,990.0,Vestlandet
3506,1238-3-15,Myklavatnet,60.412,6.076,814.0,Vestlandet
3507,1241-1-18,Svinasteinstjørna,60.133,5.767,64.0,Vestlandet
3508,1241-2-41,Skjelbreidvatnet,60.246,5.784,48.0,Vestlandet
3509,1242-2-3,Fiskevatnet,60.424,5.823,178.0,Vestlandet
3510,1246-1-15,Kvernavatnet,60.436,5.003,10.0,Vestlandet
3512,1252-2-8,HOH 1019,61.011,6.04,1019.0,Vestlandet
3513,1252-2-21,Nedre Sørdalsvatnet,60.956,6.097,758.0,Vestlandet
3514,1256-3-13,Storavatnet,60.57495434,5.10697757,10.0,Vestlandet
3515,1260-2-20,Færevatnet,60.69897765,4.97240159,19.0,Vestlandet
3516,1260-2-28,Kvalheimsvatnet,60.685,4.948,6.0,Vestlandet
3517,1263-2-33,Hundvensvatnet,60.667,5.243,21.0,Vestlandet
3518,1263-2-36,Sandvikavatnet,60.614,5.354,10.0,Vestlandet
3519,1266-1-24,HOH 800,60.923,5.799,,Vestlandet
3520,1266-2-6,Nordrevotni,60.924,5.704,664.0,Vestlandet
3521,1266-2-10,Svadfjellvatni,60.979,5.793,768.0,Vestlandet
3523,1266-2-35,Klefjellvatni,60.753,5.467,417.0,Vestlandet
3524,1401-1-8,Urdavatnet,61.651,5.014,16.0,Vestlandet
3525,1401-1-27,HOH 530,61.662,5.302,526.0,Vestlandet
3526,1411-1-10,Maletjørna,60.927,5.09,32.0,Vestlandet
3527,1412-1-9,Gardavatnet,61.029,4.695,34.0,Vestlandet
3528,1412-1-19,Krokevatnet,61.064,4.783,20.0,Vestlandet
3529,1412-2-7,Engevikvatnet,61.159,4.966,38.0,Vestlandet
3530,1413-1-33,Gåsevatnet,61.172,5.324,167.0,Vestlandet
3531,1416-1-3,Tirskardvatnet,61.196,5.844,,Vestlandet
3532,1416-1-21,Dyttingane,61.101,5.926,696.0,Vestlandet
3534,1416-2-28,HOH 729,60.997,5.655,729.0,Vestlandet
3535,1417-1-29,HOH 1171,60.938,6.538,1170.0,Vestlandet
3536,1420-1-1,Kollsetervatnet,61.274,6.958,829.0,Vestlandet
3537,1420-2-12,Storavatnet,61.259,6.945,826.0,Vestlandet
3538,1420-3-20,Dalavatnet,61.325,6.951,395.0,Vestlandet
3539,1421-1-11,HOH 1036,60.886,6.912,1035.0,Vestlandet
3541,1421-1-26,Øvre Leitevatnet,60.93705862,7.39741512,1374.0,Vestlandet
3542,1421-2-15,Øv.Sleipåvotni,60.86,7.596,1506.0,Vestlandet
3543,1421-2-31,Sleipåvotni,60.851,7.568,1401.0,Vestlandet
3545,1421-3-24,HOH 1455,60.699,7.399,1454.0,Vestlandet
3546,1421-3-26,Norddalsvatnet,60.958,7.434,1435.0,Vestlandet
3547,1421-3-30,Hednedalsvatnet,60.732,7.379,1260.0,Vestlandet
3548,1422-1-2,HOH 1539,60.975,7.78,1540.0,Vestlandet
3549,1422-1-4,Fossavotni,60.98,7.478,1315.0,Vestlandet
3550,1422-2-19,Langetjørnane,61.153,7.869,1251.0,Vestlandet
3551,1422-2-25,Æråkstjørni,61.046,7.926,1256.0,Vestlandet
3552,1422-3-18,Starsjøen,60.972,8.017,1350.0,Vestlandet
3553,1424-1-12,Fjellvatnet,61.148,7.62,1196.0,Vestlandet
3554,1424-1-14,Reinsgravtjørni,61.13,7.794,1346.0,Vestlandet
3555,1424-2-11,HOH 1430,61.405,7.658,,Vestlandet
3556,1424-2-30,Hyttedalsvatnet,61.426,7.632,1311.0,Vestlandet
3557,1426-1-6,HOH 1335,61.449,7.671,1335.0,Vestlandet
3558,1426-1-22,HOH 1475,61.703,7.434,,Vestlandet
3559,1426-1-23,Røykjedalsvatnet,61.604,7.16,1121.0,Vestlandet
3560,1426-2-13,HOH 1488,61.437,8.283,1487.0,Vestlandet
3561,1426-2-22,Nedre Mjølkedalstjørn,61.456,8.229,1420.0,Vestlandet
3562,1426-3-19,Åsetvatnet,61.563,7.571,838.0,Vestlandet
3563,1428-1-18,Tobbedalsvatnet,61.423,5.464,675.0,Vestlandet
3564,1428-2-32,Sætrevatnet,61.328,4.955,14.0,Vestlandet
3565,1428-3-7,Hærlandsvatnet,61.357,4.934,21.0,Vestlandet
3566,1429-2-10,Botnatjørna,61.296,5.335,41.0,Vestlandet
3567,1430-1-13,Jakobsvatnet,61.289,5.934,877.0,Vestlandet
3568,1430-1-65,HOH 520,61.359,5.872,517.0,Vestlandet
3569,1431-2-5,Gjesdalsvatnet,61.469,6.227,764.0,Vestlandet
3570,1431-2-26,HOH 1308,61.544,6.662,1306.0,Vestlandet
3571,1431-2-35,Håheimsvatnet,61.591,6.508,200.0,Vestlandet
3573,1431-4-6,Jølstravatnet,61.496,6.132,207.0,Vestlandet
3574,1432-1-7,Nordvatnet,61.572,6.123,893.0,Vestlandet
3575,1432-1-25,Nes-Isvatnet,61.43608119,6.31869928,984.0,Vestlandet
3577,1432-3-15,Gjerlands-Isvatnet,61.452,6.301,937.0,Vestlandet
3578,1433-1-37,Svartevatnet,61.55227748,5.69460907,460.0,Vestlandet
3579,1433-3-23,Trodalsvatnet,61.545,5.975,416.0,Vestlandet
3580,1438-2-23,L. Snønykevatnet,61.781,5.557,852.0,Vestlandet
3581,1438-2-59,Sørdalsvatnet,61.702,5.03,220.0,Vestlandet
3582,1438-3-1,Handklevatnet,61.678,5.267,502.0,Vestlandet
3583,1441-3-29,Dalsbøvatnet,62.155,5.188,47.0,Vestlandet
3584,1443-1-40,Byrjevatnet,62.005,6.187,468.0,Vestlandet
3585,1445-2-3,Vardevatnet,61.718,6.274,941.0,Vestlandet
3586,1445-2-8,Skjerdalsvatnet,61.802,5.926,310.0,Vestlandet
3587,1445-2-9,Blådalsvatnet,61.657,6.33,851.0,Vestlandet
3589,1449-4-2,Lovatnet,61.839,6.934,52.0,Vestlandet
3590,1502-1-25,Årsetvatn,62.724,7.528,170.0,Midt-Norge
3591,1504-1-13,Svartevatnet,62.454,6.539,340.0,Midt-Norge
3592,1511-1-7,Vassdalsvatnet,62.023,5.677,565.0,Midt-Norge
3593,1511-3-13,Myrkevatnet,62.133,5.809,665.0,Midt-Norge
3594,1519-3-10,Rotevatnet,62.14,6.113,47.0,Midt-Norge
3595,1520-1-5,Urdvatn,62.147,6.747,251.0,Midt-Norge
3596,1524-2-17,Gullakoppen,62.338,7.287,973.0,Midt-Norge
3597,1525-1-12,Nykkjevatn,62.136,6.914,739.0,Midt-Norge
3598,1525-2-601,Heimste Vesteråsvatnet,62.119,7.313,1017.0,Midt-Norge
3600,1526-2-13,Litlevatnet,62.437,7.335,575.0,Midt-Norge
3601,1529-3-5,Engsetvatnet,62.519,6.725,43.0,Midt-Norge
3602,1535-2-10,S. Oterskarvatn,62.582,6.859,281.0,Midt-Norge
3603,1539-1-1,HOH 1060,62.519,8.026,1062.0,Midt-Norge
3604,1539-1-3,Kalkdhøtjørni,62.363,8.168,1395.0,Midt-Norge
3605,1539-2-6,Øspevatn,62.507,7.248,787.0,Midt-Norge
3606,1539-2-11,Kråkenesvatna,62.446,7.781,1016.0,Midt-Norge
3607,1543-1-2,Klappvatn,62.797,8.055,329.0,Midt-Norge
3608,1543-2-7,Nordre Isløyptjørna,62.359,8.313,1336.0,Midt-Norge
3609,1563-1-4,Meskardvatnet,62.681,8.94,906.0,Midt-Norge
3610,1563-2-1,Nedre Håkådalsvatnet,62.468,8.669,1266.0,Midt-Norge
3611,1563-3-6,Storvatnet,62.529,8.811,1257.0,Midt-Norge
3612,1566-1-9,Grytvatnet,63.062,9.09,446.0,Midt-Norge
3613,1566-1-10,Damtjørna,63.041,8.888,,Midt-Norge
3614,1566-2-16,Holmevatnet,63.071,9.012,472.0,Midt-Norge
3616,1569-1-8,Vasslivatnet,63.289,8.59,306.0,Midt-Norge
3617,1569-2-4,Åkvikvatnet,63.341,8.49,16.0,Midt-Norge
3618,1569-2-14,Rostolvatnet,63.303,8.655,445.0,Midt-Norge
3619,1572-2-15,Linnvågvatnet,63.184,7.972,12.0,Midt-Norge
3620,1612-3-12,Heimsvatnet,63.42,9.055,44.0,Midt-Norge
3621,1613-1-18,Botntjørna,63.425,9.35,332.0,Midt-Norge
3622,1613-2-7,HOH 676,63.413,9.376,451.0,Midt-Norge
3623,1617-1-1,Langvatnet,63.587,9.044,60.0,Midt-Norge
3624,1617-1-4,Husvatnet,63.507,8.965,64.0,Midt-Norge
3625,1617-1-10,Ulvvågvatnet,63.585,9.104,45.0,Midt-Norge
3626,1617-1-12,HOH 40,63.631,8.776,14.0,Midt-Norge
3627,1617-2-2,Jevikvatnet,63.635,8.979,8.0,Midt-Norge
3628,1617-2-6,HOH 66,63.546,8.682,72.0,Midt-Norge
3629,1620-1-2,Rådalsvatnet,63.739,8.767,36.0,Midt-Norge
3630,1620-2-13,Tuvnesvatnet,63.728,8.653,7.0,Midt-Norge
3632,1622-1-17,Holtvatnet,63.551,9.622,236.0,Midt-Norge
3633,1622-2-5,Lauvvatnet,63.5,9.503,108.0,Midt-Norge
3634,1624-1-23,Sørvikvatnet,63.627,9.875,100.0,Midt-Norge
3635,1627-2-12,Ryvatnet,63.789,9.722,37.0,Midt-Norge
3637,1630-2-14,Holmvatnet,64.071,10.349,364.0,Midt-Norge
3638,1630-2-20,Torsteinvatnet,64.113,10.471,329.0,Midt-Norge
3639,1632-2-1,Storheitjørnin,64.134,10.708,402.0,Midt-Norge
3640,1634-1-8,Sattja,62.39833639,9.27325938,1283.0,Midt-Norge
3641,1634-1-14,HOH 950,62.735,9.514,942.0,Midt-Norge
3642,1634-1-20,HOH 1057,62.69984596,8.93747715,1057.0,Midt-Norge
3643,1634-3-2,Orkelsjøen,62.50905568,9.87960942,,Midt-Norge
3644,1634-3-5,Ångardsvatnet,62.673,9.161,583.0,Midt-Norge
3645,1636-1-6,Litleholtvatnet,63.07,9.466,,Midt-Norge
3646,1636-1-15,Snipvatna,62.991,9.531,673.0,Midt-Norge
3647,1638-1-16,Midtvatnet,63.268,9.392,458.0,Midt-Norge
3648,1638-2-3,Husdalsvatnet,63.357,9.863,179.0,Midt-Norge
3649,1640-1-9,HOH 808,62.391,11.837,808.0,Midt-Norge
3650,1640-1-13,Monstjørna,62.664,11.385,749.0,Midt-Norge
3651,1640-1-22,Heggrøsttjørnane,62.358,12.037,747.0,Midt-Norge
3652,1640-2-17,Store Fjellsjøen,62.698,11.266,851.0,Midt-Norge
3653,1640-2-19,Vedtjørna,62.639,11.498,873.0,Midt-Norge
38707,412-2-206,Store Ljøsvatnet,61.13243,10.87001,818.0,Østlandet
59,1235-1-17,Rennebergstjørni,60.76184934,6.22659432,1164.0,Vestlandet
66,1416-1-5,HOH 1110,61.02096896,5.96247398,,Vestlandet
77,1566-2-3,Kvernvatnet,62.88895044,9.29049043,793.0,Midt-Norge
87,1929-2-9,Storvatnet,69.40329178,17.17415499,141.0,Nord-Norge
97,2023-1-63,HOH 323,70.83956677,28.0821838,325.0,Nord-Norge
3028,402-2-7,Kjerketjerna,60.259,12.412,318.0,Østlandet
3039,419-1-6,HOH 174,60.255,11.808,174.0,Østlandet
3080,513-2-15,Kroketjørni,61.968,8.131,1338.0,Østlandet
3090,516-3-36,Store Åkrevatnet,61.494,9.146,897.0,Østlandet
3102,528-1-22,Fjælutjern,60.596,11.059,657.0,Østlandet
3144,616-1-12,Førkjetjernet,60.512,9.067,1010.0,Østlandet
3156,618-3-6,Storevatnet,60.866,8.779,824.0,Østlandet
3195,709-1-5,Bålsrødtjernet,59.021,9.858,,Østlandet
3205,814-2-4,Grummestadvatnet,58.944,9.465,,Sørlandet
3237,827-3-23,Heddevatnet,59.824,8.596,837.0,Sørlandet
3248,831-2-15,Grimvatn,59.192,7.949,650.0,Sørlandet
3258,834-1-2,Langetjørn,59.716,7.525,834.0,Sørlandet
3306,938-4-1,Åraksfjorden,58.925,7.712,203.0,Sørlandet
3316,940-2-53,Ljomsvatnet,59.177,7.594,999.0,Sørlandet
3339,1004-1-22,Skrubbedalstjørna,58.604,6.641,,Sørlandet
3361,1037-1-9,HOH 619,58.726,6.978,,Sørlandet
3371,1046-1-29,Hyttevatnan,58.75840918,6.9182818,,Sørlandet
3400,1114-3-2,Røyslandsvatnet,58.6542273,5.95939439,229.0,Vestlandet
3411,1122-1-31,Holmavatnet,58.798,6.191,682.0,Vestlandet
3421,1129-2-9,HOH 967,59.163,6.726,956.0,Vestlandet
3460,1216-3-5,Vigdarvatnet,59.497,5.371,10.0,Vestlandet
3470,1224-2-26,Sandvatna,59.865,6.138,798.0,Vestlandet
3480,1228-3-8,Reinsnosvatnet,59.94953678,6.67825571,594.0,Vestlandet
3501,1235-2-32,HOH 1167,60.516,6.337,1163.0,Vestlandet
3511,1251-1-1,Tjørnadalsvatnet,60.53203099,5.92287294,890.0,Vestlandet
3522,1266-2-11,Harekupvatnet,60.927,5.839,818.0,Vestlandet
3533,1416-2-27,HOH 761,60.994,5.825,761.0,Vestlandet
3588,1445-2-21,Traudalsvatnet,61.754,6.078,334.0,Vestlandet
3636,1630-1-19,Åsmundvatnet,63.962,10.21,20.0,Midt-Norge
3677,1718-1-16,Okstjønn,63.73,10.732,331.0,Midt-Norge
3687,1736-2-3,HOH 619,64.186,13.202,,Midt-Norge
3698,1739-1-2,HOH 1069,65.049,14.081,1069.0,Midt-Norge
3725,1811-1-22,HOH 674,65.058,12.9,674.0,Nord-Norge
3735,1825-1-9,Sivtjønna,65.17684059,13.24049642,439.0,Nord-Norge
3745,1833-1-16,HOH 695,66.541,13.817,692.0,Nord-Norge
3755,1840-3-9,Store Rosna,66.997,15.819,633.0,Nord-Norge
3777,1871-2-24,Rundvatn,68.888,15.795,281.0,Nord-Norge
3787,1924-1-7,Fiskvatn,69.199,18.614,105.0,Nord-Norge
3797,1938-1-8,Kalddalsvatnet,69.897,20.262,477.0,Nord-Norge
3808,2004-1-8,Låtrevatnet,70.681,23.111,123.0,Nord-Norge
3833,2011-1-10,HOH 390,68.645,24.852,386.0,Nord-Norge
3843,2012-2-42,HOH 719,69.85764023,22.60509628,718.0,Nord-Norge
3853,2018-1-46,HOH 497,70.671,24.925,382.0,Nord-Norge
3863,2020-1-71,Raktoailuobbalat,70.34,24.604,327.0,Nord-Norge
3907,2030-1-14,HOH 228,69.886,29.523,225.0,Nord-Norge
3917,1640-3-7,Midtre Muggsjøen,62.43893257,12.17261465,845.0,Midt-Norge
79,1622-1-5,Nedre Hanstjørna,63.44445196,9.70418934,194.0,Midt-Norge
96,2023-1-19,HOH 314,70.95003487,28.22422672,312.0,Nord-Norge
16132,432-603,Arasjøen,61.99660914,11.57765278,691.0,Østlandet
99,817-607,Måvatn,59.10709509,8.76952785,534.0,Sørlandet
17867,536-603,Kvitingen,60.69899943,10.05298514,652.0,Østlandet
15860,2030-623,St. Sametti,69.47199724,29.63278668,96.0,Nord-Norge
125,2030-607,St.Valvatnet,69.6942412,30.65586891,162.0,Nord-Norge
15705,830-26,Måvatn,59.20663902,8.62249395,664.0,Sørlandet
15712,904-12,Snøløsvatn,58.4790714,8.46099601,109.0,Sørlandet
18042,914-15,Stokkebuvatnet,58.61399824,8.97899955,41.0,Sørlandet
17988,831-15,Mjåvatn,59.32199573,7.97398757,709.0,Sørlandet
18242,1037-19,Fjotlandsvatnet,58.52200056,6.96699906,330.0,Sørlandet
17966,828-603,Pålbuvatnet,59.40299471,8.65799207,464.0,Sørlandet
17888,605-602,Øvre Kollsjø,60.35594358,9.91071807,481.0,Østlandet
17957,826-605,Sandvatn,59.8039992,9.0929826,309.0,Sørlandet
18073,929-605,Måvatn,58.88210052,8.35715274,549.0,Sørlandet
17876,540-608,Vangen,60.66022009,9.37319993,838.0,Østlandet
17854,529-601,Skjelbreida,60.6291455,10.56639153,409.0,Østlandet
18013,834-604,Vråsjåen,60.03599388,8.05599521,1115.0,Sørlandet
17809,418-601,Nøklevatn,60.48306395,11.79507414,424.0,Østlandet
137,620-502,Storekrækkja,60.4423268,7.76630601,1151.0,Østlandet
39,938-3-4,Storolavsvatnet,58.85833713,7.27576324,848.0,Sørlandet
3030,402-3-9,N Hærsjøen,60.11499514,12.38099937,228.0,Østlandet
3031,403-3-15,Brumundsjøen,61.02699929,11.1119888,633.0,Østlandet
23,540-3-13,Nevlingen,60.53726565,9.46391609,574.0,Østlandet
3433,1133-2-16,Holmavatnet,59.25702597,6.6673232,992.0,Vestlandet
3440,1134-3-6,Kaldevatn,59.49059093,6.79607213,1115.0,Vestlandet
3473,1224-3-12,Myrdalsvatnet,60.03505449,6.08293114,374.0,Vestlandet
3544,1421-3-13,Store Liavatnet,60.86399638,7.6369871,1498.0,Vestlandet
3599,1525-3-7,Vatnedalsvatnet,62.0039952,6.89698436,800.0,Midt-Norge
3351,1026-2-28,Sandvatn,58.7765035,7.17709087,895.0,Sørlandet
3350,1026-2-27,Storevatn,58.84247989,7.33999718,705.0,Sørlandet
3349,1026-2-25,Storevatnet,58.55035033,7.32548014,529.0,Sørlandet
3359,1034-2-7,Surtevatnet,58.60099944,7.18599302,667.0,Sørlandet
38686,128-2-200,Langevatnet,59.4636674,11.48432021,203.0,Østlandet
38687,402-2-201,Damtjenn,60.33759464,12.11383953,373.0,Østlandet
38688,428-2-202,Gløtsjøen,61.54164577,12.11706155,823.0,Østlandet
100,623-603,Breidlivatnet,59.97426517,10.14695433,635.0,Østlandet
38689,938-3-203,Gyvatn,58.72963744,7.66358372,564.0,Sørlandet
38690,1432-2-205,Femtevatnet,61.4806634,6.62638219,928.0,Vestlandet
38691,1001-2-204,Vassvann,58.13941297,8.15488024,19.0,Sørlandet
3654,1640-3-3,Djupsjøen,62.593,11.539,706.0,Midt-Norge
3655,1640-3-4,Styggsjøane,62.342,12.188,765.0,Midt-Norge
3657,1640-4-1,Aursunden,62.618,11.803,691.0,Midt-Norge
3658,1648-1-3,Brekkesetertj.,63.034,10.141,489.0,Midt-Norge
3659,1648-1-11,Vardetjørna,62.978,10.039,676.0,Midt-Norge
3660,1648-2-15,Langvatnet,62.931,10.052,549.0,Midt-Norge
3661,1653-2-10,Krokuttjørna,63.028,10.064,580.0,Midt-Norge
3662,1653-3-10,Benna,63.171,10.211,184.0,Midt-Norge
3663,1657-3-9,Laugen,63.271,10.043,65.0,Midt-Norge
3664,1702-1-6,Giskåstjørna,64.032,11.895,204.0,Midt-Norge
3665,1702-1-17,Sandtjern,64.219,11.574,215.0,Midt-Norge
3666,1702-2-17,Jenshusvatnet,64.173,11.43,220.0,Midt-Norge
3667,1703-1-5,Fjellsettjørna,64.391,11.569,169.0,Midt-Norge
3668,1703-2-1,Gravvatnet,64.60623483,11.72478618,141.0,Midt-Norge
3670,1711-3-8,Fundsjøen,63.496,11.793,442.0,Midt-Norge
3671,1711-4-2,Fjergen,63.457,11.992,514.0,Midt-Norge
3672,1717-2-6,Liavatnet,63.598,10.776,42.0,Midt-Norge
3673,1718-1-8,Ø. Ljøsvatn,63.673,10.479,321.0,Midt-Norge
3674,1718-1-9,Svarttjønn,63.735,10.794,283.0,Midt-Norge
3675,1718-1-10,Storskartjørna,63.718,10.74,311.0,Midt-Norge
3676,1718-1-15,Aunbyvatn,63.664,10.416,329.0,Midt-Norge
3678,1721-2-13,Søre Vassdalstjørna,63.731,12.293,528.0,Midt-Norge
3679,1721-3-15,Storbellingen,63.72,12.267,490.0,Midt-Norge
3680,1723-2-5,Røsvatnet,63.852,10.856,146.0,Midt-Norge
3681,1724-2-22,Bogatjørna,63.85342909,10.57176038,398.0,Midt-Norge
3682,1725-1-20,Øvre Steintjørna,64.307,11.113,438.0,Midt-Norge
3683,1725-2-18,Øver-Kallhammarvatnet,64.324,11.143,362.0,Midt-Norge
3684,1725-2-21,Sæterlangvatnet,64.302,11.049,280.0,Midt-Norge
3685,1736-1-22,Fiskløysa,64.055,12.424,630.0,Midt-Norge
3686,1736-1-27,HOH 617,64.198,13.157,615.0,Midt-Norge
3688,1736-2-15,Hattjørna,64.005,12.464,779.0,Midt-Norge
3690,1736-5-1,Snåsavatnet,64.256,12.3,22.0,Midt-Norge
3691,1738-1-19,Grønlitjørna,64.309,13.846,663.0,Midt-Norge
3692,1738-1-21,Storolatjørnin,64.41,13.448,537.0,Midt-Norge
3693,1738-2-12,Koitjørna,64.336,13.704,577.0,Midt-Norge
3694,1738-3-6,Store Strivatnet,64.243,14.0,749.0,Midt-Norge
3695,1738-3-7,Djupvatnet,64.423,13.562,466.0,Midt-Norge
3696,1738-3-13,Langvatnet,64.083,13.678,641.0,Midt-Norge
3697,1738-4-1,Rengen,64.103,13.969,345.0,Midt-Norge
3699,1739-1-12,HOH 654,64.873,13.355,654.0,Midt-Norge
3700,1739-1-18,Laagkoenjuenientjonne,64.85296464,13.73746288,682.0,Midt-Norge
3701,1739-1-28,Okstjørna,64.84435037,13.56539572,478.0,Midt-Norge
3702,1739-2-4,HOH 886,64.954,14.028,861.0,Midt-Norge
3703,1739-2-14,Måarenjaevrieh,64.968,13.895,744.0,Midt-Norge
3704,1739-2-19,Øvre Blåmurtjørnin,64.539,13.168,678.0,Midt-Norge
3705,1739-3-3,Vestre Rekaren,65.054,13.624,572.0,Midt-Norge
3706,1739-5-1,Tunnsjøen,64.696,13.468,358.0,Midt-Norge
3707,1740-2-9,Storskorovatn,64.64718649,13.06015838,452.0,Midt-Norge
3708,1740-2-10,Krokvatnet,65.047,13.015,665.0,Midt-Norge
3709,1740-2-39,Grøndalsvatnet,64.617,12.964,452.0,Midt-Norge
3710,1742-1-1,Liatjørnin,64.356,12.248,532.0,Midt-Norge
3711,1742-1-7,HOH 824,64.52,12.959,824.0,Midt-Norge
3712,1742-1-24,Røyrtjørna,64.583,12.459,134.0,Midt-Norge
3713,1748-3-5,Kvernvikvatnet,64.735,11.553,11.0,Midt-Norge
3714,1749-1-25,Erlandvatnet,64.451,10.805,168.0,Midt-Norge
3715,1749-3-12,Mjosundvatnet,64.584,10.97,29.0,Midt-Norge
3716,1751-1-4,Reinbærlivatnet,64.906,12.257,147.0,Midt-Norge
3717,1751-1-13,Sætertjørna,64.905,12.117,220.0,Midt-Norge
3718,1751-1-23,Langvatn,64.871,11.963,285.0,Midt-Norge
3719,1751-2-2,Småholmvatnet,64.726,11.627,20.0,Midt-Norge
3720,1751-2-7,Vasslivatnet,64.996,11.711,29.0,Midt-Norge
3721,1804-3-17,Sørvatnet,67.473,14.779,,Nord-Norge
3722,1805-1-7,Vestfjordvatnan,68.41128583,17.72045929,540.0,Nord-Norge
3723,1805-1-14,Søsterbekkvatnan,68.437,17.952,459.0,Nord-Norge
3724,1805-3-4,Storvatnet,68.362,17.444,259.0,Nord-Norge
3726,1811-3-6,Myrmarkvatnet,65.291,12.422,80.0,Nord-Norge
3727,1812-1-12,Gjerdevatnet,65.303,12.215,25.0,Nord-Norge
3728,1813-2-5,Tilremsvatnet,65.516,12.265,4.0,Nord-Norge
3729,1820-1-20,Helknavatnet,65.925,12.527,507.0,Nord-Norge
3730,1824-1-3,HOH 864,66.116,13.362,864.0,Nord-Norge
3731,1824-1-6,HOH 821,66.124,13.406,821.0,Nord-Norge
3732,1824-1-17,Kottjørna,65.835,13.729,526.0,Nord-Norge
3733,1824-2-25,HOH 444,65.689,12.954,444.0,Nord-Norge
3734,1825-1-5,Sørtjørna,65.352,13.537,645.0,Nord-Norge
3736,1825-2-23,Litle Holmvatnet,65.252,13.238,360.0,Nord-Norge
3737,1825-4-4,Store Majavatnet,65.171,13.306,310.0,Nord-Norge
3738,1826-1-8,HOH 785,65.66009142,14.5142367,785.0,Nord-Norge
3739,1826-1-10,HOH 822,65.171,13.858,822.0,Nord-Norge
3740,1826-3-24,Fisklausvatnet,65.391,14.329,760.0,Nord-Norge
3741,1826-4-3,Unkervatnet,65.498,14.186,321.0,Nord-Norge
3742,1826-5-1,Røssvatnet,65.776,14.033,383.0,Nord-Norge
3743,1833-1-13,HOH 752,66.367,15.093,,Nord-Norge
3744,1833-1-15,Steinbekktjørna,66.327,14.375,193.0,Nord-Norge
3746,1833-1-19,HOH 1034,66.511,15.096,1034.0,Nord-Norge
3747,1833-3-1,Store Blerekvatnet,66.333,15.061,681.0,Nord-Norge
3748,1836-1-21,HOH 662,66.661,13.682,661.0,Nord-Norge
3749,1836-2-14,Storvatnet,66.65620671,13.22692491,18.0,Nord-Norge
3750,1836-3-2,Gjervalvatnet,66.478,13.492,83.0,Nord-Norge
3751,1837-3-3,Spilderdalsvatnet,66.87651884,13.87753836,64.0,Nord-Norge
3752,1840-1-1,HOH 757,67.057,15.816,757.0,Nord-Norge
3753,1840-1-4,HOH 725,67.052,15.647,725.0,Nord-Norge
3754,1840-3-7,Solvågvatnet,66.859,15.485,705.0,Nord-Norge
3756,1841-1-18,HOH 938,67.055,16.273,938.0,Nord-Norge
3757,1842-2-6,HOH 162,67.083,14.989,162.0,Nord-Norge
3758,1842-2-7,Storoksvatnet,66.941,15.036,544.0,Nord-Norge
3759,1842-3-14,HOH 472,67.113,14.829,473.0,Nord-Norge
3760,1845-2-2,Hurrejavrrazat,67.55,16.348,960.0,Nord-Norge
3761,1845-2-21,HOH 903,67.431,16.056,901.0,Nord-Norge
3762,1848-2-4,Synstelvvatn,67.691,14.891,504.0,Nord-Norge
3763,1848-2-10,HOH 281,67.81,15.56,281.0,Nord-Norge
3764,1848-2-15,Breiddalsvatnan,67.865,15.258,156.0,Nord-Norge
3765,1849-2-3,Lilandsvatn,68.068,15.501,2.0,Nord-Norge
3766,1849-2-18,HOH 760,67.719,16.352,760.0,Nord-Norge
3767,1849-3-18,Sandnesvatnet,67.858,15.946,45.0,Nord-Norge
3768,1850-2-12,HOH 880,67.99691175,16.95430919,877.0,Nord-Norge
3769,1850-2-19,Storvatnet,67.957,16.585,63.0,Nord-Norge
3770,1850-3-11,Hievstenjavri,67.749,16.545,633.0,Nord-Norge
3771,1853-3-13,Lavangsvatn,68.502,16.665,4.0,Nord-Norge
3772,1854-2-16,Stopålvatnet,68.36286566,16.59062643,76.0,Nord-Norge
3773,1866-1-2,Ulvøyvatn,68.354,15.024,3.0,
3774,1866-1-11,Austpollvatnan,68.385,14.905,,Nord-Norge
3775,1870-2-1,Langvatnet,68.656,15.045,60.0,Nord-Norge
3776,1870-2-20,Kjerringnesdalsvatn,68.663,15.544,36.0,Nord-Norge
3778,1871-3-22,Storvatnet,69.255,15.938,28.0,Nord-Norge
3779,1901-2-5,Botnvatn,68.831,16.407,75.0,Nord-Norge
3780,1902-2-11,Storvatnet,69.78,18.59,152.0,Nord-Norge
3781,1917-1-15,Juliusvatnet,68.851,17.338,417.0,Nord-Norge
3782,1917-3-4,Skipsvatnet,68.779,16.972,170.0,Nord-Norge
3783,1922-1-14,HOH 504,68.4,19.788,501.0,Nord-Norge
3784,1922-2-10,Dalbergvatnet,68.708,18.604,868.0,Nord-Norge
3785,1924-1-2,Tømmertjørnet,69.009,20.081,,Nord-Norge
3786,1924-1-4,HOH 1044,68.903,19.856,1044.0,Nord-Norge
3788,1924-1-12,HOH 770,68.892,20.021,770.0,Nord-Norge
3789,1924-2-4,Sætervatnet,68.813,18.947,801.0,Nord-Norge
3790,1924-2-6,Fonnskardvatnet,68.881,18.717,828.0,Nord-Norge
3791,1926-1-10,Femvatnan,69.094,17.833,595.0,Nord-Norge
3792,1927-3-1,Kapervatnet,69.24905025,17.40560625,168.0,Nord-Norge
3793,1927-3-2,Storvatnet,69.197,17.718,172.0,Nord-Norge
3794,1931-4-1,Finnfjordvatnet,69.218,18.228,25.0,Nord-Norge
3795,1933-3-3,Sagelvvatnet,69.188,19.099,91.0,Nord-Norge
3796,1936-1-1,HOH 11,70.181,19.905,12.0,Nord-Norge
3798,1939-1-3,HOH 1045,69.242,20.892,1046.0,Nord-Norge
3799,1939-1-9,Mallajavrrit,69.097,20.367,,Nord-Norge
3800,1939-1-13,HOH 905,69.14,20.574,905.0,Nord-Norge
3801,1940-2-2,Vuoddojavrit,69.5,21.15,821.0,Nord-Norge
3802,1940-3-6,Goddejavri,69.344,20.95,897.0,Nord-Norge
3803,1942-2-1,Doaresjavri,69.481,21.172,883.0,Nord-Norge
3804,1942-2-8,Gahkkorjavri,69.33708583,21.65759767,667.0,Nord-Norge
3805,1943-1-11,HOH 551,69.931,22.243,551.0,Nord-Norge
3806,1943-2-12,Madenjånnejavri,69.729,22.53,630.0,Nord-Norge
3807,2003-3-2,Oardujavri,70.474,29.223,223.0,Nord-Norge
3809,2011-1-6,Amasjavri,68.878,22.797,337.0,Nord-Norge
3810,2011-1-9,Njargajavri,68.898,24.046,409.0,Nord-Norge
3811,2011-1-12,HOH 407,68.89,24.107,404.0,Nord-Norge
3812,2011-1-16,HOH 537,69.493,23.378,537.0,Nord-Norge
3813,2011-1-34,HOH 366,69.38,23.587,367.0,Nord-Norge
3814,2011-1-41,Madiijavrit,68.769,23.492,386.0,Nord-Norge
3815,2011-1-51,HOH 376,69.287,23.518,373.0,Nord-Norge
3816,2011-1-58,HOH 370,68.952,24.624,365.0,Nord-Norge
3817,2011-1-66,HOH 381,69.117,22.87,381.0,Nord-Norge
3818,2011-1-67,HOH 358,69.174,23.588,360.0,Nord-Norge
3819,2011-2-4,Cuorvoncåkkavuoljavri,69.644,23.707,476.0,Nord-Norge
3820,2011-2-5,Gakkesjavri,69.25068557,24.12376472,445.0,Nord-Norge
3821,2011-2-12,Cuolbmajavri,69.342,22.772,550.0,Nord-Norge
3822,2011-2-13,HOH 385,68.921,24.351,383.0,Nord-Norge
3823,2011-2-14,HOH 446,68.962,23.589,448.0,Nord-Norge
3824,2011-2-15,HOH 356,68.86,24.958,356.0,Nord-Norge
3825,2011-2-18,HOH 424,68.781,24.611,422.0,Nord-Norge
3826,2011-2-20,Vuovdevuonjaljavri,69.622,23.646,476.0,Nord-Norge
3827,2011-2-31,Vuovdeluobbal,69.219,23.67,331.0,Nord-Norge
3828,2011-2-43,HOH 376,68.986,24.357,375.0,Nord-Norge
3829,2011-2-44,Rebmesluobbalat,68.728,22.979,440.0,Nord-Norge
3830,2011-3-5,Saiva,69.408,23.336,421.0,Nord-Norge
3831,2011-3-11,Mollejusgåbejavri,69.421,22.354,643.0,Nord-Norge
3832,2011-3-13,Jårgajavri,69.212,22.878,450.0,Nord-Norge
3834,2012-1-26,HOH 542,69.96758767,22.43455371,542.0,Nord-Norge
3835,2012-1-33,HOH 745,69.973,22.606,752.0,Nord-Norge
3836,2012-1-38,Tørrelvvatna,69.814,22.643,664.0,Nord-Norge
3837,2012-1-53,HOH 230,69.859,23.433,232.0,Nord-Norge
3838,2012-1-54,HOH 459,69.929,23.99,460.0,Nord-Norge
3839,2012-1-56,HOH 392,70.02686449,22.84381357,396.0,Nord-Norge
3840,2012-1-62,HOH 359,69.835,23.76,359.0,Nord-Norge
3841,2012-2-1,HOH 479,69.814,24.109,479.0,Nord-Norge
3842,2012-2-26,Ninnasjuhanajavri,69.747,23.915,387.0,Nord-Norge
3844,2012-2-46,Øvre Sørelvvatnet,70.006,23.812,483.0,Nord-Norge
3845,2014-1-59,HOH 665,70.085,22.255,668.0,Nord-Norge
3846,2014-2-29,Ternevatnet,70.101,22.378,360.0,Nord-Norge
3847,2015-2-10,Langkeilvatn,70.671,22.546,113.0,Nord-Norge
3848,2017-1-3,HOH 610,70.391,24.111,609.0,Nord-Norge
3849,2017-1-55,HOH 243,70.621,24.333,241.0,Nord-Norge
3850,2017-2-45,Gukkesluobbal,70.261,23.779,310.0,Nord-Norge
3851,2018-1-36,HOH 165,70.912,24.649,165.0,Nord-Norge
3852,2018-1-39,HOH 370,70.687,24.815,370.0,Nord-Norge
3854,2018-1-49,HOH 340,70.803,25.157,340.0,Nord-Norge
3855,2018-1-72,HOH 128,70.863,25.0,128.0,Nord-Norge
3856,2018-2-22,Lamvatnet,70.809,24.464,104.0,Nord-Norge
3857,2018-2-37,Jiegnajavrit,70.897,25.441,218.0,Nord-Norge
3858,2018-3-6,Måkkejavri,70.749,25.13,262.0,Nord-Norge
3859,2020-1-5,HOH 582,70.07,25.548,,Nord-Norge
3860,2020-1-20,Ucca Lakcajavrit,70.4,25.684,218.0,Nord-Norge
3861,2020-1-50,Rambijærvi,70.354,25.542,64.0,Nord-Norge
3862,2020-1-70,HOH 316,69.819,25.543,315.0,Nord-Norge
3864,2020-2-11,Båldnejavri,69.862,24.478,509.0,Nord-Norge
3865,2020-2-32,Coalbmejavri,69.988,24.985,133.0,Nord-Norge
3866,2020-2-41,Luomujavrit,70.634,25.042,338.0,Nord-Norge
3867,2020-2-47,Ravdujavri,70.338,25.841,167.0,Nord-Norge
3868,2020-3-1,Læktujavri,70.187,24.347,367.0,Nord-Norge
3869,2021-1-2,HOH 450,69.64779595,24.66464689,,Nord-Norge
3870,2021-1-17,Hannoailaddut Nord,69.14090532,24.98638658,435.0,Nord-Norge
3871,2021-1-24,HOH 310,69.42,24.293,313.0,Nord-Norge
3872,2021-1-35,HOH 415,69.728,24.261,416.0,Nord-Norge
3873,2021-1-64,HOH 382,69.475,24.775,386.0,Nord-Norge
3874,2021-1-65,HOH 361,69.75,25.896,361.0,Nord-Norge
3875,2021-2-8,Iddjavarjavri,69.633,25.187,278.0,Nord-Norge
3876,2021-2-21,Dåggejåkjavrit,69.614,24.742,450.0,Nord-Norge
3877,2021-2-40,Nieidaidjavrit,69.586,25.225,338.0,Nord-Norge
3878,2021-3-12,Mailejavri,69.576,25.026,329.0,Nord-Norge
3879,2021-4-2,Iddjajavr,69.628,25.323,277.0,Nord-Norge
3883,2022-1-23,Liinajavri,70.426,26.406,259.0,Nord-Norge
3884,2022-1-25,HOH 417,70.52,26.148,419.0,Nord-Norge
3885,2022-1-28,HOH 425,70.492,26.374,429.0,Nord-Norge
3886,2022-1-43,HOH 210,71.014,27.639,207.0,Nord-Norge
3887,2022-1-69,HOH 223,70.284,26.789,227.0,Nord-Norge
3888,2022-2-6,HOH 306,71.062,27.54,307.0,Nord-Norge
3889,2023-1-18,Nerdalsvatnet,70.575,27.376,85.0,Nord-Norge
3891,2023-2-2,Holmevatnet,71.055,28.221,27.0,Nord-Norge
3892,2023-2-19,HOH 257,70.904,27.825,257.0,Nord-Norge
3893,2023-2-23,Middagsvatna,71.026,28.08,146.0,Nord-Norge
3894,2025-1-1,Gistuladdut,70.342,27.671,325.0,Nord-Norge
3895,2025-1-11,HOH 368,70.404,27.76,365.0,Nord-Norge
3896,2025-1-15,HOH 185,70.436,28.382,185.0,Nord-Norge
3897,2025-1-47,Hannujavrit,70.314,27.91,201.0,Nord-Norge
3898,2025-1-52,HOH 299,69.996,27.061,296.0,Nord-Norge
3899,2025-2-9,Sammutjavri,69.99,26.853,280.0,Nord-Norge
3900,2025-3-9,Nissujavri,70.397,27.815,221.0,Nord-Norge
3901,2027-1-4,HOH 329,69.97561294,29.10734197,329.0,Nord-Norge
3902,2027-2-25,Suolojavri,70.08066174,28.42290911,168.0,Nord-Norge
3903,2027-2-33,HOH 272,69.955,28.69,274.0,Nord-Norge
3904,2027-3-3,Diergejavri,69.969,28.546,173.0,Nord-Norge
3905,2027-3-7,Cuoggujavri,70.157,28.333,98.0,Nord-Norge
3906,2028-2-17,Prestelvvatnet,70.645,29.876,311.0,Nord-Norge
3908,2030-1-21,HOH 126,69.789,29.533,124.0,Nord-Norge
3909,2030-1-68,HOH 328,69.924,29.09,328.0,Nord-Norge
3910,2030-2-24,Urdtjernet,69.436,29.518,132.0,Nord-Norge
3911,2030-2-28,Indre Torvfjellvatna,69.741,28.89,130.0,Nord-Norge
3912,2030-2-35,Lynnevatn,69.246,28.912,165.0,Nord-Norge
3913,2030-2-38,HOH 205,69.969,29.381,204.0,Nord-Norge
3914,2030-3-4,Moalkegalsajavri,69.773,29.214,142.0,Nord-Norge
3918,1711-3-1,Skurdalsvatnet,63.36409447,12.09083508,694.0,Midt-Norge
73,1438-1-16,HOH 770,61.68621119,5.3058727,670.0,Vestlandet
37,935-1-19,Færetjørn,58.42787563,7.95976654,251.0,Sørlandet
27,631-2-7,Mjovatnet,59.835,9.34,590.0,Østlandet
38,937-1-21,Øytjørn,58.66810922,7.68324407,513.0,Sørlandet
48,1111-1-14,Eikelitjørna,58.38926011,6.39543535,211.0,Vestlandet
10,221-1-2,Langtjern,59.80864254,11.85027432,273.0,Østlandet
9,101-2-7,Hokksjøen,59.0044234,11.56358634,148.0,Østlandet
11,402-2-13,Sætertjern,60.06022166,12.44671144,252.0,Østlandet
12,419-1-25,Mjøgsjøen,60.32857753,11.8421862,489.0,Østlandet
13,425-2-2,Kottern,60.59072946,12.51700849,480.0,Østlandet
14,432-1-26,Måsabutjørna,61.8222,11.1834,748.0,Østlandet
15,436-1-7,HOH 1066,62.23615928,11.13619956,1066.0,Østlandet
16,438-1-13,Brennvoltjørna,61.98456162,10.78499212,862.0,Østlandet
17,512-1-26,HOH 1374,62.32794163,9.07993605,1377.0,Østlandet
18,512-2-7,Kjelsungvatnet,62.24001032,9.14821579,1250.0,Østlandet
19,513-2-18,Nedre Søvertjørni,61.85860149,7.6852919,1296.0,Østlandet
20,513-3-14,Liavatnet,61.849,7.752,733.0,Østlandet
21,514-2-16,Skuggevatnet,61.59123063,7.99565965,1373.0,Østlandet
22,538-1-33,Høgkampvatnet,61.06660673,9.81883005,1194.0,Østlandet
24,545-1-15,HOH 1398,61.19811387,8.46260201,1398.0,Østlandet
25,604-1-7,Korstjernet,59.52199655,9.63347437,767.0,Østlandet
26,604-3-3,Hengsvatnet,59.65618463,9.4415214,453.0,Østlandet
28,807-1-71,Surtetjørn,59.77231309,9.12523824,471.0,Sørlandet
29,817-1-10,Vihusvatnet,59.07633693,8.88201358,467.0,Sørlandet
30,829-1-13,Mjåvatn,59.311,8.268,978.0,Sørlandet
31,830-1-24,Store Kleivtjørn,59.02265958,8.65039603,414.0,Sørlandet
32,833-2-21,Folurdkaldevatn,59.3836825,7.59348255,1073.0,Sørlandet
33,834-1-12,Hemletjørnane,59.61075187,7.54322131,1106.0,Sørlandet
34,834-1-32,HOH 1394,59.93816288,7.96235116,1394.0,Sørlandet
35,928-1-7,Lundevatnet,58.46007642,8.21435903,324.0,Sørlandet
36,928-2-20,Lille Hovvatnet,58.60525202,8.03626503,503.0,Sørlandet
40,940-2-9,HOH 1227,59.18429408,7.10573061,1224.0,Sørlandet
41,941-2-23,Reinsgrovtjørnane,59.34189763,7.00623649,1120.0,Sørlandet
42,1003-2-4,Saudlandsvatnet,58.20399577,6.76486583,106.0,Sørlandet
43,1004-1-34,Store Einervann/HOH 230,58.31215765,6.57577756,224.0,Sørlandet
44,1014-1-32,Krossvatnet,58.24253239,7.78938368,197.0,Sørlandet
45,1032-1-19,Svartevatnet,58.278,7.086,336.0,Sørlandet
46,1037-1-1,Lisle Frøysvatnet,58.30513362,7.10953963,445.0,Sørlandet
47,1046-1-23,Bergetjørni,59.017,6.906,698.0,Sørlandet
49,1114-1-20,Skjelbreidtjørni,58.726,6.188,240.0,Vestlandet
50,1114-1-34,Lomstjørni,58.67622276,6.08323611,242.0,Vestlandet
51,1122-1-9,Kråtjørni,58.74057372,6.11825705,535.0,Vestlandet
52,1129-1-13,Tvaravatnet,59.0399926,6.30813732,698.0,Vestlandet
53,1201-1-23,Knappatjørna,60.3299579,5.26210175,,Vestlandet
54,1201-1-32,Brekkevatnet,60.34352983,5.59155803,324.0,Vestlandet
55,1228-1-16,1230 HOH,59.77908541,7.02439361,1233.0,Vestlandet
56,1228-2-4,Øvre Juklevatni,60.05973323,7.02721169,1430.0,Vestlandet
57,1231-1-41,HOH 1092,60.29211579,6.4895288,1092.0,Vestlandet
58,1235-1-6,Rundatjørni,60.56906845,6.3032973,1171.0,Vestlandet
60,1263-3-10,Husdalsvatnet,60.652,5.5,51.0,Vestlandet
61,1266-1-25,Stemmevatnet,60.86098477,5.32273465,296.0,Vestlandet
62,1266-1-43,HOH 816,60.9289057,5.81325344,816.0,Vestlandet
63,1401-1-35,Rundedalsvatnet,61.66270384,5.20363991,551.0,Vestlandet
64,1411-2-17,Holmevatnet,60.96964172,5.39901013,606.0,Vestlandet
65,1411-2-34,Botnavatnet,60.98299141,5.39369831,457.0,Vestlandet
67,1416-2-6,Blåfjellvatnet,61.0163901,5.76145903,696.0,Vestlandet
68,1421-1-34,HOH 1530,60.85403576,7.63638136,1524.0,Vestlandet
69,1426-2-29,Krongeltjørni,61.56781295,7.93852536,1389.0,Vestlandet
70,1429-3-22,Langesjøen,61.26700174,5.17160519,24.0,Vestlandet
71,1432-2-20,Steinbotsvatna,61.36345396,6.40645056,913.0,Vestlandet
72,1433-1-30,Einevollsvatnet,61.480934,5.58238897,284.0,Vestlandet
74,1534-2-5,St. Hestevatn,62.58961009,6.40579258,228.0,Midt-Norge
75,1539-3-3,Ulvådalsvatnet,62.2566481,7.85559103,858.0,Midt-Norge
76,1543-2-8,Røndalskarvatn,62.60732864,8.07511495,757.0,Midt-Norge
78,1566-2-19,HOH 1078,62.74564621,9.00189917,1078.0,Midt-Norge
80,1622-2-4,Austvatnet,63.40388529,9.75614662,224.0,Midt-Norge
81,1640-2-18,Skebrosjøane,62.40194723,12.16572692,831.0,Midt-Norge
82,1718-1-3,Hyttvatnet,63.74842314,10.52540605,428.0,Midt-Norge
83,1736-3-4,Snaufjellvatnet,64.18274674,13.146364,623.0,Midt-Norge
84,1738-3-9,Midtre Blåfjellvatnet,64.11006727,13.52191258,703.0,Midt-Norge
85,1751-2-11,Grønlivatnet,64.8681688,11.98004706,200.0,Midt-Norge
86,1851-2-13,Trollvatnet,68.36113296,15.60629112,198.0,Nord-Norge
88,1929-2-13,Daudmannsvatn,69.32858333,17.38890005,276.0,Nord-Norge
89,2011-1-13,HOH 510,68.86979017,23.70243355,508.0,Nord-Norge
90,2011-1-29,HOH 407,68.87495385,24.40091786,401.0,Nord-Norge
91,2011-1-60,HOH 414,69.04404951,23.45425412,414.0,Nord-Norge
92,2011-2-34,Guolehisjavri,68.916,22.275,455.0,Nord-Norge
93,2020-2-30,HOH 515,70.16992658,25.39495951,515.0,Nord-Norge
94,2022-1-42,HOH 292,70.73211993,27.41810546,294.0,Nord-Norge
95,2022-1-45,HOH 561,70.16143402,26.7248431,561.0,Nord-Norge
98,2025-1-57,HOH 450,70.53692968,28.77009349,453.0,Nord-Norge
115,831-501,Brårvatn,,,902.0,
116,1640-603,Tufsingen,62.60677237,11.89417982,781.0,Midt-Norge
135,1228-501,Steinavatn,59.85635166,6.57198057,1050.0,Vestlandet
166,1018-4,Kleivsetvannet,58.11955919,7.66489942,93.0,Sørlandet
171,1840-601,Kjemåvatn,66.75053824,15.40786828,626.0,Nord-Norge
187,429-601,Holmsjøen,61.15741109,11.62184838,559.0,Østlandet
193,1725-3-14,Bjørfarvatnet,64.28012302,10.97320543,263.0,Midt-Norge
2998,101-2-2,Steinsvatnet,59.098,11.662,178.0,Østlandet
2999,101-4-1,Femsjøen,59.134,11.461,80.0,Østlandet
3000,105-3-6,Isesjøen,59.277,11.224,38.0,Østlandet
3001,105-3-10,Tunevatnet,59.312,11.099,40.0,Østlandet
3002,118-1-7,Lilledalstjernet,59.245,11.69,113.0,Østlandet
3003,118-1-39,Ekertjernet,59.307,11.748,130.0,Østlandet
3004,119-1-2,Hølevatnet,59.61034283,11.65820396,199.0,Østlandet
3005,119-2-81,Nordre Torgrimsbutjern,59.354,11.766,111.0,Østlandet
3006,119-4-3,Rødenessjøen,59.488,11.646,118.0,Østlandet
3007,128-1-4,Stomperudtjernet,59.323,11.405,107.0,Østlandet
3009,137-3-1,Sæbyvatnet,59.428,10.982,47.0,Østlandet
3010,217-3-1,Gjersjøen,59.78446277,10.78068684,40.0,Østlandet
3011,220-2-9,Bondivatnet,59.82,10.434,99.0,Østlandet
3012,221-1-6,Lombergtjern,59.738,11.618,193.0,Østlandet
3013,221-1-9,Lembruvatna,59.841,11.838,260.0,Østlandet
3014,221-3-2,Floen,59.99087117,11.53298578,179.0,Østlandet
3015,227-2-1,Heia,59.929,11.222,183.0,Østlandet
3016,231-2-5,Tretjernet,59.988,11.133,192.0,Østlandet
3017,235-1-3,Sesvolltjernet,60.251,11.165,,Østlandet
3018,236-1-12,Djuptjern,60.021,11.541,,Østlandet
3019,236-2-4,Flasjøen,60.097,11.753,262.0,Østlandet
3020,239-1-186,Buråstjern,60.431,11.036,208.0,Østlandet
3021,239-2-3,Bundlitjernet,60.432,11.109,,Østlandet
3022,239-2-10,Holtjernet,60.468,11.096,444.0,Østlandet
3023,239-4-3,Hurdalsjøen,60.32019647,11.0893847,176.0,Østlandet
3024,301-1-1,Steinsrudtjern,59.822,10.871,133.0,Østlandet
3025,301-2-1,Rottungen,60.04804291,10.71476929,310.0,Østlandet
3026,301-3-1,Helgeren,60.08179287,10.70933118,359.0,Østlandet
3027,402-1-28,Eintjern,60.07239969,12.3681817,175.0,Østlandet
3032,412-1-20,Kinnlitjernet,60.886,10.806,233.0,Østlandet
3033,412-1-22,Ørtjernet,61.013,11.113,,Østlandet
3034,412-3-4,Sjusjøen,61.146,10.708,810.0,Østlandet
3035,412-5-1,Mjøsa,60.899,10.692,123.0,Østlandet
3036,418-1-4,Vesle Otten,60.455,11.368,,Østlandet
3037,418-1-14,Geittjerna,60.469,11.568,354.0,Østlandet
3038,418-2-3,Tennungen,60.354,11.44,298.0,Østlandet
3040,419-1-23,Svarttjernet,60.295,11.703,180.0,Østlandet
3041,419-2-8,Igletjernet,60.278,11.704,184.0,Østlandet
191,402-604,Storbørja,60.091,11.912,301.0,Østlandet
3043,423-1-21,Langtjernet,60.458,12.416,,Østlandet
3044,423-3-14,Rotnesjøen,60.502,12.344,260.0,Østlandet
3045,425-1-15,Kalbråtåsjøen,60.55,12.333,,Østlandet
3046,425-2-10,Steinsjøen,60.827,12.256,293.0,Østlandet
3047,425-2-25,Knapptjernet,60.58,12.144,255.0,Østlandet
3049,426-3-1,Vålmangen,60.599,11.769,351.0,Østlandet
3050,427-3-12,Svenkebekksjøen,60.871,11.945,290.0,Østlandet
3051,428-2-15,Mjølsjøen,61.577,12.194,882.0,Østlandet
3053,430-2-1,Setningsjøen,61.771,10.246,754.0,Østlandet
3054,430-2-16,Gråtjørna,61.858,10.578,928.0,Østlandet
3055,432-1-2,Langtjørna,61.535,11.292,573.0,Østlandet
3056,432-1-10,Byringtjørna,61.486,11.442,715.0,Østlandet
3057,432-1-18,Stortjørna,61.599,11.261,689.0,Østlandet
3058,432-2-23,Hundtjørna,61.822,10.961,826.0,Østlandet
3060,432-4-1,Sølensjøen,61.92705685,11.6060924,688.0,Østlandet
3061,432-4-2,Storsjøen,61.452,11.31,252.0,Østlandet
3062,434-1-11,Abbortjørna,62.305,12.145,739.0,Østlandet
3063,434-2-4,Store Sorksjøen,61.98047756,11.99565138,677.0,Østlandet
3064,434-2-21,Skjervagen,61.921,12.187,661.0,Østlandet
3065,434-3-23,Fjellgutusjøen,62.075,12.088,734.0,Østlandet
3066,434-5-1,Femunden,62.352,11.954,664.0,Østlandet
3067,436-1-3,Rabbtjørna,62.348,11.278,895.0,Østlandet
3068,437-1-9,Halvorstjørna,62.53,10.209,831.0,Østlandet
3069,438-2-19,Søre Klettsjøen,61.993,10.232,947.0,Østlandet
3070,441-1-12,Storflotjørna,62.53194908,11.02681626,741.0,Østlandet
3071,501-3-9,Mellsjøen,61.207,10.687,893.0,Østlandet
3072,511-3-15,Vålåsjøen,62.175,9.403,936.0,Østlandet
3073,512-1-8,Nedre Mølmsvatnet,62.285,8.375,1395.0,Østlandet
3074,512-1-14,Lomtjørni,62.274,8.693,875.0,Østlandet
3075,512-1-18,HOH 1506,62.353,9.095,1510.0,Østlandet
3076,512-2-23,Rygghøtjørni,62.034,8.573,1524.0,Østlandet
3077,512-3-12,Langvatnet,62.317,9.152,1411.0,Østlandet
3078,513-1-7,HOH 1370,62.041,7.451,1370.0,Østlandet
3079,513-2-5,Grøntjørni,61.757,7.815,1518.0,Østlandet
3081,513-2-27,Styggvatnet,61.756,7.715,1405.0,Østlandet
3082,514-1-1,Urdadalstjørnin,61.543,8.4,1540.0,Østlandet
3083,514-1-10,Sjugurdtindtjørni,61.485,8.569,1443.0,Østlandet
3084,514-1-29,Brangsdalstjørnin,61.624,8.086,1382.0,Østlandet
3085,514-2-26,Panna,61.548,8.304,1460.0,Østlandet
3086,515-1-23,Skytningen,61.814,9.026,822.0,Østlandet
3087,515-2-1,Tjørnosen,61.593,9.014,1227.0,Østlandet
3088,515-2-24,Birisjøen,61.564,8.965,934.0,Østlandet
3089,516-2-8,Nedre Sikkilsdalsvatnet,61.482,9.013,992.0,Østlandet
3091,517-1-16,HOH 1506,61.905,9.703,1506.0,Østlandet
3092,519-1-6,Sprentjørna,61.449,9.553,1131.0,Østlandet
3093,519-2-12,Nordre Vulutjørni,61.828,10.014,1072.0,Østlandet
3094,519-2-29,Vesle Jetningen,61.481,9.813,918.0,Østlandet
3095,520-1-11,Urdtjern,61.67,10.091,916.0,Østlandet
3096,520-1-31,Steinslatjørnet,61.464,10.602,1088.0,Østlandet
3097,521-2-14,Tromstjørn,61.403,10.506,903.0,Østlandet
3098,521-3-5,Lyngen,61.382,10.758,1007.0,Østlandet
3099,522-1-13,Skruvdalstjernet,61.211,9.538,931.0,Østlandet
3100,522-3-4,Øvre Reinsjøen,61.189,9.596,960.0,Østlandet
3101,522-3-16,Espedalsvatnet,61.382,9.612,722.0,Østlandet
3103,528-2-6,Mørksjøen,60.525,11.021,509.0,Østlandet
3105,532-1-3,Fagervatnet,60.19908321,10.49389303,525.0,Østlandet
3106,533-3-17,Mylla,60.241,10.553,498.0,Østlandet
3107,534-5-1,Randsfjorden,60.39,10.394,135.0,Østlandet
3108,536-1-12,Brokslitjernet,60.804,10.299,589.0,Østlandet
3110,538-1-20,Kolsrudvatnet,60.892,10.216,565.0,Østlandet
3111,538-2-2,Vangsjøen,60.877,9.984,773.0,Østlandet
3112,540-2-21,Holmevatnet,60.738,9.907,685.0,Østlandet
3113,540-2-22,Øyvatnet,60.77868031,9.79763777,741.0,Østlandet
3115,541-2-3,Grannstøltjernet,61.046,9.685,1038.0,Østlandet
3116,542-1-19,Nisetjernet,61.121,9.437,,Østlandet
3117,542-1-25,Nordre Valegrovtjernet,61.083,9.419,991.0,Østlandet
3118,542-3-6,Hærevatn,60.813,9.255,964.0,Østlandet
3119,542-3-8,Stogofjorden,60.807,9.215,949.0,Østlandet
3120,543-3-2,Vasetvatnet,60.997,8.964,796.0,Østlandet
3121,543-4-4,Storfjorden,60.917,8.864,859.0,Østlandet
3122,544-1-2,HOH 955,61.145,9.178,955.0,Østlandet
3123,544-1-27,HOH 1198,61.29460189,8.8451595,,Østlandet
3124,544-2-10,Fisketjerni,61.394,8.79,1377.0,Østlandet
3125,544-2-11,Nordre Vindin,61.194,9.021,725.0,Østlandet
3126,545-1-24,Myrjetjernet,61.344,8.292,1351.0,Østlandet
3127,545-1-32,Tvindehaugtjernet,61.321,8.315,1357.0,Østlandet
3128,545-2-4,HOH 1337,61.228,8.149,1337.0,Østlandet
3129,545-2-13,Fussegrovtjørni,61.091,8.281,1475.0,Østlandet
3130,545-2-17,Langetjernet,61.242,8.581,1431.0,Østlandet
3131,545-2-25,Seksin,61.31,8.734,1063.0,Østlandet
3132,545-3-7,Helin,61.046,8.632,868.0,Østlandet
3133,545-3-19,Nedre Årdalsvatnet,61.25,8.17,1246.0,Østlandet
3134,545-4-1,Bygdin,61.363,8.386,1058.0,Østlandet
3135,545-4-3,Vangsmjøsi,61.163,8.442,466.0,Østlandet
3136,545-4-5,Tyin,61.309,8.245,1083.0,Østlandet
3137,604-1-17,Trytetjerna,59.585,9.586,,Østlandet
3138,604-2-18,Tverrvatnet,59.481,9.632,529.0,Østlandet
3139,605-1-5,Gravvatnet,60.459,9.831,573.0,Østlandet
3141,612-5-1,Tyrifjorden,59.91836469,9.97001246,63.0,Østlandet
3142,615-2-17,Eitrytetjern,60.361,9.427,948.0,Østlandet
3143,616-1-10,Kytetjernet,60.57999248,8.92198689,852.0,Østlandet
3145,616-1-13,Langevatnet,60.509,8.734,1034.0,Østlandet
3146,616-1-26,Hammartjørnet,60.5869337,8.79902817,966.0,Østlandet
3147,616-1-31,Vardetjernan,60.6,8.885,919.0,Østlandet
3148,616-2-6,Ausa,60.562,8.77,1006.0,Østlandet
3149,616-2-20,Belgevatnet,60.581,8.774,980.0,Østlandet
3150,617-1-19,Nystøltjørni,60.718,8.795,981.0,Østlandet
3151,617-1-23,Metubba,60.789,9.085,851.0,Østlandet
3152,617-1-28,Ørkvatnet,60.765,8.977,805.0,Østlandet
3153,618-1-3,HOH 1456,60.9,8.142,1446.0,Østlandet
3154,618-3-1,Vannen,60.837,8.735,831.0,Østlandet
3157,619-1-1,Butjørni,60.568,8.674,1123.0,Østlandet
3158,619-2-19,Mefaringen,60.572,8.54,1017.0,Østlandet
3159,619-2-33,Austre Flågrunnsvatnet,60.862,7.822,1489.0,Østlandet
3160,619-3-2,Vassfjorden,60.691,8.398,736.0,Østlandet
3161,619-3-10,Halldalsvatnet,60.497,8.45,844.0,Østlandet
3162,620-1-6,HOH 1760,60.602,7.704,1759.0,Østlandet
3163,620-1-14,HOH 1340,60.639,7.73,1341.0,Østlandet
3164,620-1-15,Skarvåtjørnane,60.703,7.748,1274.0,Østlandet
3165,620-1-21,HOH 1540,60.628,7.698,1538.0,Østlandet
3166,620-3-7,Skurdalsfjorden,60.471,8.286,782.0,Østlandet
